__time,/foil_consigne/servo_aileron_left,/foil_consigne/servo_aileron_right,/foil_consigne/servo_foil,/foil_consigne/servo_gouvernail,/foil_consigne/thruster
1707317325.336334,2.516099215,-0.446738273,-1.481418848,0.000000000,40.000000000
1707317325.436388,2.522173882,-0.439167649,-1.480670810,0.000000000,40.000000000
1707317325.536367,2.516526222,-0.445940614,-1.481233478,0.000000000,40.000000000
1707317325.636275,2.503396273,-0.459673047,-1.481534600,0.000000000,40.000000000
1707317325.736225,2.479073286,-0.484284699,-1.481678963,0.000000000,40.000000000
1707317325.836195,2.466923237,-0.496723056,-1.481823206,0.000000000,40.000000000
1707317325.936171,2.459447861,-0.506214559,-1.482831120,0.000000000,40.000000000
1707317326.036487,2.454173565,-0.511687815,-1.482930660,0.000000000,40.000000000
1707317326.136370,2.391968250,-0.572643936,-1.482306004,0.000000000,40.000000000
1707317326.236333,2.376445055,-0.585611463,-1.481028318,0.000000000,40.000000000
1707317326.336099,2.434151411,-0.529080093,-1.481615782,0.000000000,40.000000000
1707317326.436101,2.488762379,-0.475684494,-1.482223511,0.000000000,40.000000000
1707317326.536277,2.535621643,-0.428033680,-1.481827617,0.000000000,40.000000000
1707317326.636372,2.523391008,-0.440170437,-1.481780767,0.000000000,40.000000000
1707317326.736207,2.476716280,-0.486596018,-1.481656194,0.000000000,40.000000000
1707317326.836082,2.438786745,-0.524951756,-1.481869221,0.000000000,40.000000000
1707317326.936230,2.400846720,-0.561326504,-1.481086612,0.000000000,40.000000000
1707317327.036075,2.396108389,-0.566243827,-1.481176019,0.000000000,40.000000000
1707317327.136262,2.430139303,-0.528018951,-1.479079127,0.000000000,40.000000000
1707317327.236187,2.467538357,-0.490063578,-1.478801012,0.000000000,40.000000000
1707317327.336168,2.526420832,-0.432594925,-1.479507923,0.000000000,40.000000000
1707317327.436045,2.548635960,-0.407903075,-1.478269577,0.000000000,40.000000000
1707317327.536087,2.547031879,-0.410753071,-1.478892446,0.000000000,40.000000000
1707317327.636010,2.524025679,-0.435022473,-1.479524016,0.000000000,40.000000000
1707317327.736081,2.462171555,-0.495159686,-1.478665709,0.000000000,40.000000000
1707317327.836111,2.425667286,-0.532205999,-1.478936672,0.000000000,40.000000000
1707317327.936188,2.397651672,-0.559684515,-1.478668094,0.000000000,40.000000000
1707317328.036061,2.400357008,-0.554395556,-1.477376223,0.000000000,40.000000000
1707317328.135712,2.436057806,-0.513247669,-1.474652767,0.000000000,40.000000000
1707317328.235999,2.474948883,-0.476930976,-1.475939989,0.000000000,40.000000000
1707317328.335900,2.523459196,-0.428087771,-1.475773454,0.000000000,40.000000000
1707317328.435974,2.538003445,-0.411661506,-1.474832535,0.000000000,40.000000000
1707317328.536079,2.529803753,-0.424402773,-1.477103233,0.000000000,40.000000000
1707317328.635716,2.505136967,-0.446151078,-1.475643992,0.000000000,40.000000000
1707317328.735638,2.463377476,-0.491526455,-1.477452040,0.000000000,40.000000000
1707317328.836062,2.437002420,-0.519155085,-1.478078723,0.000000000,40.000000000
1707317328.935942,2.420670509,-0.531218708,-1.475944638,0.000000000,40.000000000
1707317329.035882,2.428319693,-0.524198353,-1.476258993,0.000000000,40.000000000
1707317329.135711,2.460596561,-0.489837110,-1.475216866,0.000000000,40.000000000
1707317329.235873,2.488317728,-0.462506115,-1.475411892,0.000000000,40.000000000
1707317329.335714,2.517547607,-0.435305208,-1.476426482,0.000000000,40.000000000
1707317329.435745,2.530503511,-0.420694470,-1.475598931,0.000000000,40.000000000
1707317329.535773,2.531155825,-0.422860742,-1.477008224,0.000000000,40.000000000
1707317329.635662,2.524780989,-0.428330451,-1.476555705,0.000000000,40.000000000
1707317329.735824,2.500332832,-0.454750597,-1.477541685,0.000000000,40.000000000
1707317329.835743,2.479104757,-0.476903975,-1.478004456,0.000000000,40.000000000
1707317329.935834,2.445355654,-0.508400321,-1.476878047,0.000000000,40.000000000
1707317330.035515,2.434538364,-0.521013498,-1.477775931,0.000000000,40.000000000
1707317330.135534,2.438481331,-0.511139452,-1.474810481,0.000000000,40.000000000
1707317330.235679,2.453139067,-0.497026056,-1.475082517,0.000000000,40.000000000
1707317330.335613,2.483605862,-0.467794716,-1.475700378,0.000000000,40.000000000
1707317330.435448,2.499811888,-0.449151486,-1.474481702,0.000000000,40.000000000
1707317330.535723,2.515419006,-0.443180799,-1.479299903,0.000000000,40.000000000
1707317330.635418,2.510306835,-0.448143274,-1.479225039,0.000000000,40.000000000
1707317330.735449,2.488389730,-0.466994077,-1.477692008,0.000000000,40.000000000
1707317330.835445,2.469530344,-0.487519741,-1.478525043,0.000000000,40.000000000
1707317330.935463,2.448476076,-0.505106270,-1.476791263,0.000000000,40.000000000
1707317331.035521,2.442769766,-0.512191415,-1.477480531,0.000000000,40.000000000
1707317331.135477,2.452266693,-0.502790630,-1.477528691,0.000000000,40.000000000
1707317331.235143,2.465305805,-0.490743756,-1.478024721,0.000000000,40.000000000
1707317331.335260,2.487080812,-0.469969809,-1.478525400,0.000000000,40.000000000
1707317331.435319,2.496654272,-0.459489346,-1.478071809,0.000000000,40.000000000
1707317331.535324,2.500264883,-0.456260741,-1.478262901,0.000000000,40.000000000
1707317331.635338,2.493052006,-0.461993665,-1.477522731,0.000000000,40.000000000
1707317331.735378,2.477107763,-0.480824143,-1.478965998,0.000000000,40.000000000
1707317331.835564,2.463072062,-0.495099396,-1.479085684,0.000000000,40.000000000
1707317331.935558,2.451273441,-0.507266343,-1.479269981,0.000000000,40.000000000
1707317332.035431,2.448570728,-0.509452641,-1.479011655,0.000000000,40.000000000
1707317332.135199,2.459748030,-0.497353256,-1.478550673,0.000000000,40.000000000
1707317332.235317,2.468991280,-0.489157766,-1.479074478,0.000000000,40.000000000
1707317332.335141,2.488443136,-0.470584095,-1.479513645,0.000000000,40.000000000
1707317332.435167,2.494338512,-0.464517146,-1.479427814,0.000000000,40.000000000
1707317332.535102,2.497198343,-0.463478565,-1.480338454,0.000000000,40.000000000
1707317332.635056,2.488381863,-0.471364945,-1.479873419,0.000000000,40.000000000
1707317332.735268,2.471295357,-0.490271717,-1.480783463,0.000000000,40.000000000
1707317332.835277,2.462070704,-0.498996496,-1.480533600,0.000000000,40.000000000
1707317332.935288,2.455537558,-0.501876593,-1.478707075,0.000000000,40.000000000
1707317333.035028,2.458331108,-0.502304494,-1.480317831,0.000000000,40.000000000
1707317333.135069,2.469259977,-0.492641091,-1.480950475,0.000000000,40.000000000
1707317333.235298,2.479248285,-0.482195199,-1.480721712,0.000000000,40.000000000
1707317333.335291,2.490658045,-0.472295403,-1.481476665,0.000000000,40.000000000
1707317333.434935,2.496119499,-0.467103451,-1.481611490,0.000000000,40.000000000
1707317333.534990,2.493059635,-0.469593346,-1.481326461,0.000000000,40.000000000
1707317333.635074,2.486074448,-0.477792919,-1.481933713,0.000000000,40.000000000
1707317333.735118,2.472697258,-0.489848286,-1.481272697,0.000000000,40.000000000
1707317333.835020,2.464598656,-0.496765614,-1.480682135,0.000000000,40.000000000
1707317333.935278,2.461809158,-0.500464022,-1.481136560,0.000000000,40.000000000
1707317334.034864,2.466502905,-0.497064859,-1.481783867,0.000000000,40.000000000
1707317334.134810,2.472104788,-0.491147012,-1.481625915,0.000000000,40.000000000
1707317334.235175,2.483744860,-0.477523535,-1.480634212,0.000000000,40.000000000
1707317334.334938,2.490818024,-0.471280813,-1.481049418,0.000000000,40.000000000
1707317334.434800,2.490353107,-0.471898347,-1.481125712,0.000000000,40.000000000
1707317334.535155,2.487159491,-0.478337377,-1.482748389,0.000000000,40.000000000
1707317334.634791,2.479217291,-0.485664785,-1.482441068,0.000000000,40.000000000
1707317334.734890,2.470948219,-0.494122118,-1.482535124,0.000000000,40.000000000
1707317334.834767,2.470017910,-0.496753871,-1.483385921,0.000000000,40.000000000
1707317334.934759,2.470434427,-0.495585471,-1.483009934,0.000000000,40.000000000
1707317335.034819,2.474809885,-0.490863800,-1.482836962,0.000000000,40.000000000
1707317335.134703,2.479603052,-0.487039715,-1.483321309,0.000000000,40.000000000
1707317335.234812,2.489882946,-0.477848738,-1.483865857,0.000000000,40.000000000
1707317335.334640,2.499517202,-0.468451381,-1.483984232,0.000000000,40.000000000
1707317335.434791,2.506350040,-0.461766720,-1.484058380,0.000000000,40.000000000
1707317335.534698,2.518874168,-0.447270542,-1.483072400,0.000000000,40.000000000
1707317335.634610,2.531597137,-0.434856564,-1.483226776,0.000000000,40.000000000
1707317335.734713,2.568560362,-0.400622129,-1.484591246,0.000000000,40.000000000
1707317335.834628,2.588093042,-0.381258011,-1.484675527,0.000000000,40.000000000
1707317335.934707,2.555976629,-0.413120955,-1.484548807,0.000000000,40.000000000
1707317336.034709,2.516214609,-0.455756426,-1.485985518,0.000000000,40.000000000
1707317336.134589,2.464946985,-0.506117344,-1.485532165,0.000000000,40.000000000
1707317336.234534,2.404106140,-0.567281008,-1.485693574,0.000000000,40.000000000
1707317336.334414,2.389102221,-0.582537353,-1.485819817,0.000000000,40.000000000
1707317336.434486,2.410177231,-0.559780121,-1.484978676,0.000000000,40.000000000
1707317336.534512,2.466948509,-0.503892303,-1.485420346,0.000000000,40.000000000
1707317336.634510,2.509207010,-0.460983187,-1.485095024,0.000000000,40.000000000
1707317336.734571,2.551006317,-0.418979436,-1.484992862,0.000000000,40.000000000
1707317336.834475,2.552790880,-0.416885436,-1.484838128,0.000000000,40.000000000
1707317336.934438,2.520941973,-0.448398143,-1.484670043,0.000000000,40.000000000
1707317337.034437,2.486619711,-0.484036118,-1.485327840,0.000000000,40.000000000
1707317337.134418,2.449336767,-0.520894825,-1.485115886,0.000000000,40.000000000
1707317337.234485,2.411922693,-0.560358226,-1.486140490,0.000000000,40.000000000
1707317337.334311,2.413864374,-0.559372425,-1.486618400,0.000000000,40.000000000
1707317337.434448,2.436397552,-0.538713396,-1.487555504,0.000000000,40.000000000
1707317337.534490,2.496121883,-0.478231192,-1.487176538,0.000000000,40.000000000
1707317337.634502,2.536005259,-0.437869161,-1.486937165,0.000000000,40.000000000
1707317337.734508,2.596724272,-0.376927733,-1.486826062,0.000000000,40.000000000
1707317337.834498,2.592707634,-0.380650461,-1.486679077,0.000000000,40.000000000
1707317337.934233,2.542359829,-0.428931713,-1.485645771,0.000000000,40.000000000
1707317338.034326,2.486623287,-0.485199660,-1.485911489,0.000000000,40.000000000
1707317338.134218,2.430704355,-0.541064560,-1.485884547,0.000000000,40.000000000
1707317338.234354,2.376210451,-0.593490899,-1.484850764,0.000000000,40.000000000
1707317338.334364,2.380172014,-0.589292526,-1.484732270,0.000000000,40.000000000
1707317338.434227,2.413889885,-0.555535018,-1.484712481,0.000000000,40.000000000
1707317338.534233,2.485338211,-0.485877812,-1.485608101,0.000000000,40.000000000
1707317338.634281,2.529091120,-0.442010432,-1.485550761,0.000000000,40.000000000
1707317338.734249,2.562986374,-0.409567505,-1.486276865,0.000000000,40.000000000
1707317338.834280,2.556125164,-0.417001158,-1.486563087,0.000000000,40.000000000
1707317338.934306,2.512219906,-0.461743921,-1.486981869,0.000000000,40.000000000
1707317339.034216,2.469778776,-0.504622877,-1.487200737,0.000000000,40.000000000
1707317339.133998,2.429966211,-0.544644833,-1.487305522,0.000000000,40.000000000
1707317339.233953,2.398910522,-0.574875951,-1.486893296,0.000000000,40.000000000
1707317339.333926,2.404006243,-0.570236862,-1.487121582,0.000000000,40.000000000
1707317339.434062,2.422712088,-0.552824080,-1.487768054,0.000000000,40.000000000
1707317339.534122,2.457663536,-0.517969429,-1.487816572,0.000000000,40.000000000
1707317339.633863,2.477423429,-0.498026848,-1.487725139,0.000000000,40.000000000
1707317339.734100,2.487447739,-0.489667982,-1.488557816,0.000000000,40.000000000
1707317339.834082,2.481223106,-0.496345639,-1.488784313,0.000000000,40.000000000
1707317339.934223,2.454044580,-0.523716152,-1.488880396,0.000000000,40.000000000
1707317340.034035,2.435821056,-0.543863595,-1.489842296,0.000000000,40.000000000
1707317340.134150,2.419819355,-0.560324490,-1.490071893,0.000000000,40.000000000
1707317340.234137,2.411192417,-0.566373825,-1.488783121,0.000000000,40.000000000
1707317340.334003,2.425169945,-0.555054724,-1.490112424,0.000000000,40.000000000
1707317340.434105,2.441343546,-0.538507998,-1.489925861,0.000000000,40.000000000
1707317340.534019,2.465822458,-0.513651967,-1.489737272,0.000000000,40.000000000
1707317340.633865,2.475175858,-0.504572153,-1.489874005,0.000000000,40.000000000
1707317340.733945,2.475718260,-0.503152013,-1.489435196,0.000000000,40.000000000
1707317340.833792,2.465539455,-0.512063980,-1.488801718,0.000000000,40.000000000
1707317340.933687,2.442567110,-0.532942891,-1.487755060,0.000000000,40.000000000
1707317341.033946,2.430089474,-0.547353089,-1.488721251,0.000000000,40.000000000
1707317341.133744,2.422630548,-0.556598961,-1.489614725,0.000000000,40.000000000
1707317341.233885,2.425092697,-0.552882671,-1.488987684,0.000000000,40.000000000
1707317341.333765,2.440573454,-0.538539290,-1.489556432,0.000000000,40.000000000
1707317341.433664,2.454687357,-0.524440944,-1.489564180,0.000000000,40.000000000
1707317341.533779,2.469475269,-0.508843064,-1.489159226,0.000000000,40.000000000
1707317341.633778,2.474463463,-0.504442811,-1.489453197,0.000000000,40.000000000
1707317341.733870,2.474590778,-0.504540265,-1.489565611,0.000000000,40.000000000
1707317341.833812,2.468356133,-0.511321366,-1.489838719,0.000000000,40.000000000
1707317341.933836,2.454381943,-0.521063864,-1.487722874,0.000000000,40.000000000
1707317342.033738,2.445832253,-0.527408779,-1.486620545,0.000000000,40.000000000
1707317342.133650,2.441017389,-0.531122565,-1.486070037,0.000000000,40.000000000
1707317342.233752,2.443087578,-0.529215932,-1.486151814,0.000000000,40.000000000
1707317342.333675,2.451303720,-0.521127999,-1.486215949,0.000000000,40.000000000
1707317342.433682,2.458375931,-0.513039708,-1.485707879,0.000000000,40.000000000
1707317342.533546,2.467295408,-0.508112907,-1.487704158,0.000000000,40.000000000
1707317342.633639,2.468694925,-0.507270932,-1.487982869,0.000000000,40.000000000
1707317342.733527,2.463861704,-0.511226535,-1.487544060,0.000000000,40.000000000
1707317342.833593,2.457988739,-0.517480135,-1.487734437,0.000000000,40.000000000
1707317342.933468,2.448055267,-0.526664376,-1.487359881,0.000000000,40.000000000
1707317343.033478,2.444068670,-0.529662311,-1.486865520,0.000000000,40.000000000
1707317343.133521,2.441454887,-0.531652927,-1.486553907,0.000000000,40.000000000
1707317343.233581,2.444964409,-0.528155148,-1.486559749,0.000000000,40.000000000
1707317343.333484,2.451355696,-0.518910170,-1.485132933,0.000000000,40.000000000
1707317343.433547,2.456258297,-0.512201190,-1.484229684,0.000000000,40.000000000
1707317343.533555,2.458762169,-0.508793294,-1.483777642,0.000000000,40.000000000
1707317343.634037,2.456929684,-0.508867919,-1.482898831,0.000000000,40.000000000
1707317343.733482,2.451768398,-0.514560044,-1.483164310,0.000000000,40.000000000
1707317343.833358,2.445996523,-0.518187165,-1.482091904,0.000000000,40.000000000
1707317343.933438,2.440462589,-0.522488356,-1.481475472,0.000000000,40.000000000
1707317344.033342,2.439414978,-0.524302959,-1.481858969,0.000000000,40.000000000
1707317344.133252,2.440449715,-0.523934007,-1.482191801,0.000000000,40.000000000
1707317344.233467,2.445421219,-0.520425677,-1.482923508,0.000000000,40.000000000
1707317344.333200,2.451282501,-0.515353084,-1.483317733,0.000000000,40.000000000
1707317344.433342,2.452663898,-0.513122797,-1.482893348,0.000000000,40.000000000
1707317344.533515,2.451798439,-0.512485266,-1.482141852,0.000000000,40.000000000
1707317344.633133,2.449838877,-0.514026344,-1.481932640,0.000000000,40.000000000
1707317344.733234,2.446475029,-0.517709553,-1.482092261,0.000000000,40.000000000
1707317344.833189,2.440602779,-0.521859825,-1.481231332,0.000000000,40.000000000
1707317344.933136,2.437328339,-0.524839520,-1.481083989,0.000000000,40.000000000
1707317345.033142,2.437120914,-0.524870098,-1.480995536,0.000000000,40.000000000
1707317345.133166,2.440070629,-0.522155762,-1.481113195,0.000000000,40.000000000
1707317345.233030,2.441943884,-0.519225478,-1.480584621,0.000000000,40.000000000
1707317345.332981,2.445261478,-0.515715361,-1.480488420,0.000000000,40.000000000
1707317345.433084,2.445461988,-0.513584197,-1.479523063,0.000000000,40.000000000
1707317345.533154,2.445372105,-0.514310539,-1.479841352,0.000000000,40.000000000
1707317345.633057,2.443374872,-0.516720057,-1.480047464,0.000000000,40.000000000
1707317345.733221,2.439961433,-0.518832922,-1.479397178,0.000000000,40.000000000
1707317345.833003,2.438137770,-0.520240068,-1.479188919,0.000000000,40.000000000
1707317345.933132,2.436085701,-0.518841028,-1.477463365,0.000000000,40.000000000
1707317346.033028,2.437489986,-0.516435921,-1.476962924,0.000000000,40.000000000
1707317346.133000,2.439962626,-0.514176428,-1.477069497,0.000000000,40.000000000
1707317346.232893,2.443088055,-0.510611415,-1.476849794,0.000000000,40.000000000
1707317346.332809,2.444322586,-0.508463025,-1.476392746,0.000000000,40.000000000
1707317346.433072,2.443176031,-0.510098279,-1.476637125,0.000000000,40.000000000
1707317346.532954,2.443549633,-0.510241032,-1.476895332,0.000000000,40.000000000
1707317346.632854,2.440184593,-0.512375891,-1.476280212,0.000000000,40.000000000
1707317346.732931,2.436782360,-0.514928639,-1.475855589,0.000000000,40.000000000
1707317346.833009,2.435227871,-0.516012371,-1.475620031,0.000000000,40.000000000
1707317346.933074,2.435480595,-0.515849113,-1.475664735,0.000000000,40.000000000
1707317347.032769,2.436358929,-0.512599230,-1.474479079,0.000000000,40.000000000
1707317347.132803,2.439126492,-0.510137618,-1.474632144,0.000000000,40.000000000
1707317347.232765,2.440385818,-0.508360982,-1.474373341,0.000000000,40.000000000
1707317347.332619,2.439905167,-0.507464707,-1.473684907,0.000000000,40.000000000
1707317347.432726,2.439005136,-0.508576453,-1.473790765,0.000000000,40.000000000
1707317347.532943,2.436591864,-0.511716843,-1.474154353,0.000000000,40.000000000
1707317347.632677,2.435247421,-0.513509154,-1.474378347,0.000000000,40.000000000
1707317347.732697,2.434751272,-0.516307712,-1.475529432,0.000000000,40.000000000
1707317347.832742,2.434964418,-0.516217113,-1.475590706,0.000000000,40.000000000
1707317347.932785,2.435696840,-0.514628768,-1.475162745,0.000000000,40.000000000
1707317348.032684,2.436041594,-0.512885809,-1.474463701,0.000000000,40.000000000
1707317348.132662,2.437685490,-0.509942830,-1.473814130,0.000000000,40.000000000
1707317348.232718,2.437986135,-0.508210719,-1.473098397,0.000000000,40.000000000
1707317348.332607,2.437407017,-0.509124935,-1.473266006,0.000000000,40.000000000
1707317348.432546,2.435183764,-0.508902609,-1.472043157,0.000000000,40.000000000
1707317348.532503,2.431932926,-0.511613190,-1.471773148,0.000000000,40.000000000
1707317348.632664,2.430066109,-0.511283338,-1.470674753,0.000000000,40.000000000
1707317348.732548,2.428263664,-0.511067986,-1.469665885,0.000000000,40.000000000
1707317348.832522,2.428514719,-0.511837244,-1.470175982,0.000000000,40.000000000
1707317348.932509,2.430322886,-0.512620449,-1.471471667,0.000000000,40.000000000
1707317349.032479,2.429436207,-0.511462331,-1.470449209,0.000000000,40.000000000
1707317349.132501,2.431237698,-0.511090577,-1.471164227,0.000000000,40.000000000
1707317349.232726,2.430593967,-0.511913478,-1.471253753,0.000000000,40.000000000
1707317349.332462,2.428007603,-0.513250947,-1.470629334,0.000000000,40.000000000
1707317349.432797,2.425783634,-0.513271809,-1.469527721,0.000000000,40.000000000
1707317349.532735,2.423450232,-0.514328897,-1.468889594,0.000000000,40.000000000
1707317349.632352,2.426266432,-0.512151897,-1.469209194,0.000000000,40.000000000
1707317349.732355,2.425384521,-0.512959540,-1.469172120,0.000000000,40.000000000
1707317349.832294,2.423547506,-0.512882113,-1.468214869,0.000000000,40.000000000
1707317349.932369,2.424442768,-0.511329055,-1.467885971,0.000000000,40.000000000
1707317350.032352,2.423900843,-0.513342440,-1.468621612,0.000000000,40.000000000
1707317350.132491,2.423479795,-0.512644410,-1.468062043,0.000000000,40.000000000
1707317350.232636,2.422634363,-0.513558209,-1.468096256,0.000000000,40.000000000
1707317350.332325,2.422872305,-0.512880921,-1.467876554,0.000000000,40.000000000
1707317350.432297,2.424097300,-0.512493074,-1.468295217,0.000000000,40.000000000
1707317350.532331,2.424915314,-0.512699604,-1.468807459,0.000000000,40.000000000
1707317350.632124,2.425022840,-0.511736214,-1.468379498,0.000000000,40.000000000
1707317350.732183,2.422749996,-0.513501465,-1.468125701,0.000000000,40.000000000
1707317350.832268,2.422369957,-0.513967931,-1.468168855,0.000000000,40.000000000
1707317350.932155,2.421120644,-0.515308797,-1.468214631,0.000000000,40.000000000
1707317351.032072,2.421477318,-0.516403556,-1.468940496,0.000000000,40.000000000
1707317351.132010,2.422342539,-0.515116632,-1.468729496,0.000000000,40.000000000
1707317351.232169,2.422587395,-0.514238477,-1.468412876,0.000000000,40.000000000
1707317351.331986,2.424164295,-0.512333095,-1.468248606,0.000000000,40.000000000
1707317351.431955,2.424503803,-0.513388991,-1.468946338,0.000000000,40.000000000
1707317351.532191,2.423550844,-0.515837908,-1.469694376,0.000000000,40.000000000
1707317351.631941,2.423985720,-0.516439736,-1.470212698,0.000000000,40.000000000
1707317351.732181,2.423628569,-0.517502666,-1.470565677,0.000000000,40.000000000
1707317351.832142,2.423834801,-0.517473042,-1.470654011,0.000000000,40.000000000
1707317351.932122,2.423545122,-0.518594801,-1.471069932,0.000000000,40.000000000
1707317352.032053,2.423543453,-0.517912447,-1.470728040,0.000000000,40.000000000
1707317352.132077,2.423653126,-0.517633915,-1.470643520,0.000000000,40.000000000
1707317352.231877,2.424215317,-0.518069506,-1.471142411,0.000000000,40.000000000
1707317352.331909,2.424641371,-0.515964091,-1.470302701,0.000000000,40.000000000
1707317352.431890,2.424921274,-0.515674710,-1.470298052,0.000000000,40.000000000
1707317352.531983,2.424675703,-0.514710784,-1.469693303,0.000000000,40.000000000
1707317352.631880,2.424454451,-0.514516234,-1.469485283,0.000000000,40.000000000
1707317352.731981,2.424807549,-0.515063584,-1.469935656,0.000000000,40.000000000
1707317352.831896,2.424841166,-0.514615715,-1.469728351,0.000000000,40.000000000
1707317352.931952,2.423896551,-0.514601648,-1.469249010,0.000000000,40.000000000
1707317353.031723,2.421823025,-0.515336275,-1.468579650,0.000000000,40.000000000
1707317353.131758,2.423460484,-0.514300048,-1.468880296,0.000000000,40.000000000
1707317353.231806,2.424120665,-0.513079286,-1.468599916,0.000000000,40.000000000
1707317353.331738,2.424429655,-0.513087869,-1.468758702,0.000000000,40.000000000
1707317353.431867,2.422871828,-0.514232099,-1.468551993,0.000000000,40.000000000
1707317353.532114,2.421454430,-0.513469160,-1.467461824,0.000000000,40.000000000
1707317353.631812,2.420768976,-0.513653040,-1.467211008,0.000000000,40.000000000
1707317353.731863,2.420967340,-0.514510155,-1.467738748,0.000000000,40.000000000
1707317353.831753,2.420769453,-0.514427185,-1.467598319,0.000000000,40.000000000
1707317353.931813,2.420903206,-0.515283167,-1.468093157,0.000000000,40.000000000
1707317354.031633,2.421211958,-0.515582323,-1.468397260,0.000000000,40.000000000
1707317354.131729,2.421193361,-0.516759515,-1.468976498,0.000000000,40.000000000
1707317354.231598,2.428982258,-0.509550869,-1.469266653,0.000000000,40.000000000
1707317354.331528,2.440756083,-0.498195499,-1.469475865,0.000000000,40.000000000
1707317354.431583,2.441997528,-0.498290181,-1.470143914,0.000000000,40.000000000
1707317354.531626,2.435955763,-0.504591644,-1.470273614,0.000000000,40.000000000
1707317354.631621,2.426001787,-0.515207171,-1.470604420,0.000000000,40.000000000
1707317354.731702,2.411074877,-0.526473939,-1.468774438,0.000000000,40.000000000
1707317354.831522,2.405311823,-0.531434536,-1.468373179,0.000000000,40.000000000
1707317354.931542,2.406696558,-0.530627072,-1.468661904,0.000000000,40.000000000
1707317355.031586,2.411729097,-0.525078714,-1.468403935,0.000000000,40.000000000
1707317355.131615,2.418854475,-0.517905772,-1.468380094,0.000000000,40.000000000
1707317355.231609,2.431958914,-0.506270468,-1.469114661,0.000000000,40.000000000
1707317355.331810,2.439542770,-0.498602957,-1.469072938,0.000000000,40.000000000
1707317355.431627,2.437489033,-0.500879109,-1.469184041,0.000000000,40.000000000
1707317355.531438,2.428294420,-0.509841740,-1.469068050,0.000000000,40.000000000
1707317355.631373,2.420209169,-0.517576396,-1.468892813,0.000000000,40.000000000
1707317355.731442,2.411326647,-0.524290860,-1.467808723,0.000000000,40.000000000
1707317355.831556,2.409357548,-0.525952637,-1.467655063,0.000000000,40.000000000
1707317355.931294,2.413514853,-0.520832300,-1.467173576,0.000000000,40.000000000
1707317356.031417,2.421092987,-0.514517903,-1.467805505,0.000000000,40.000000000
1707317356.131422,2.427099466,-0.508088052,-1.467593789,0.000000000,40.000000000
1707317356.231431,2.434336662,-0.499703765,-1.467020273,0.000000000,40.000000000
1707317356.331371,2.434663534,-0.499438196,-1.467050791,0.000000000,40.000000000
1707317356.431184,2.429380655,-0.503521085,-1.466450930,0.000000000,40.000000000
1707317356.531117,2.419853449,-0.513319135,-1.466586232,0.000000000,40.000000000
1707317356.631225,2.413418293,-0.518071592,-1.465744972,0.000000000,40.000000000
1707317356.731114,2.409110069,-0.521814287,-1.465462208,0.000000000,40.000000000
1707317356.831151,2.410809517,-0.520857573,-1.465833545,0.000000000,40.000000000
1707317356.931036,2.417313576,-0.513708830,-1.465511203,0.000000000,40.000000000
1707317357.030976,2.421824217,-0.508098304,-1.464961290,0.000000000,40.000000000
1707317357.131044,2.425353765,-0.504545391,-1.464949608,0.000000000,40.000000000
1707317357.231092,2.426850319,-0.501380980,-1.464115620,0.000000000,40.000000000
1707317357.331058,2.423658848,-0.504209876,-1.463934302,0.000000000,40.000000000
1707317357.431153,2.418712378,-0.509562194,-1.464137316,0.000000000,40.000000000
1707317357.531100,2.413284302,-0.514654219,-1.463969231,0.000000000,40.000000000
1707317357.631036,2.410417557,-0.517705858,-1.464061737,0.000000000,40.000000000
1707317357.731234,2.412379742,-0.517857194,-1.465118527,0.000000000,40.000000000
1707317357.830947,2.414499521,-0.515853822,-1.465176702,0.000000000,40.000000000
1707317357.931004,2.419405460,-0.510350585,-1.464878082,0.000000000,40.000000000
1707317358.030935,2.423756361,-0.506413043,-1.465084672,0.000000000,40.000000000
1707317358.130885,2.423887730,-0.504547656,-1.464217782,0.000000000,40.000000000
1707317358.231327,2.422314644,-0.507001460,-1.464658141,0.000000000,40.000000000
1707317358.330814,2.419151306,-0.510720611,-1.464935899,0.000000000,40.000000000
1707317358.431067,2.416016817,-0.512946308,-1.464481592,0.000000000,40.000000000
1707317358.530951,2.413868666,-0.515721440,-1.464794993,0.000000000,40.000000000
1707317358.630821,2.414002180,-0.515794396,-1.464898229,0.000000000,40.000000000
1707317358.730906,2.414836407,-0.515689015,-1.465262651,0.000000000,40.000000000
1707317358.830937,2.417753935,-0.510860384,-1.464307189,0.000000000,40.000000000
1707317358.931073,2.422854185,-0.506014824,-1.464434385,0.000000000,40.000000000
1707317359.030748,2.425771475,-0.504247546,-1.465009570,0.000000000,40.000000000
1707317359.130764,2.425340891,-0.506062210,-1.465701461,0.000000000,40.000000000
1707317359.230788,2.424180269,-0.507201314,-1.465690732,0.000000000,40.000000000
1707317359.330960,2.420759678,-0.509889960,-1.465324759,0.000000000,40.000000000
1707317359.430685,2.416790009,-0.513364315,-1.465077162,0.000000000,40.000000000
1707317359.530786,2.418377876,-0.513136923,-1.465757370,0.000000000,40.000000000
1707317359.630835,2.419591904,-0.513968289,-1.466780066,0.000000000,40.000000000
1707317359.730880,2.421170712,-0.510497928,-1.465834379,0.000000000,40.000000000
1707317359.830636,2.425581694,-0.508043230,-1.466812372,0.000000000,40.000000000
1707317359.930646,2.429269314,-0.507500947,-1.468385100,0.000000000,40.000000000
1707317360.030669,2.431447983,-0.505141854,-1.468294978,0.000000000,40.000000000
1707317360.130708,2.429538012,-0.507459819,-1.468498826,0.000000000,40.000000000
1707317360.230646,2.429235935,-0.509694636,-1.469465256,0.000000000,40.000000000
1707317360.330539,2.427428484,-0.511884272,-1.469656348,0.000000000,40.000000000
1707317360.430655,2.425998688,-0.512500167,-1.469249368,0.000000000,40.000000000
1707317360.530610,2.427582979,-0.510944545,-1.469263792,0.000000000,40.000000000
1707317360.630720,2.427685976,-0.511423707,-1.469554901,0.000000000,40.000000000
1707317360.730530,2.432106972,-0.505072474,-1.468589664,0.000000000,40.000000000
1707317360.830531,2.434696198,-0.503744066,-1.469220161,0.000000000,40.000000000
1707317360.930599,2.435590029,-0.502281606,-1.468935847,0.000000000,40.000000000
1707317361.030594,2.436158419,-0.502349317,-1.469253898,0.000000000,40.000000000
1707317361.130847,2.433634043,-0.503329337,-1.468481660,0.000000000,40.000000000
1707317361.230416,2.430127621,-0.505949676,-1.468038678,0.000000000,40.000000000
1707317361.330493,2.426680326,-0.508650720,-1.467665553,0.000000000,40.000000000
1707317361.430323,2.425949574,-0.508582294,-1.467265964,0.000000000,40.000000000
1707317361.530476,2.427858353,-0.507029235,-1.467443824,0.000000000,40.000000000
1707317361.630485,2.428348780,-0.505719721,-1.467034221,0.000000000,40.000000000
1707317361.730780,2.431555986,-0.502171278,-1.466863632,0.000000000,40.000000000
1707317361.830545,2.433390379,-0.501052737,-1.467221618,0.000000000,40.000000000
1707317361.930396,2.432894945,-0.500610352,-1.466752648,0.000000000,40.000000000
1707317362.030230,2.431725025,-0.501320481,-1.466522813,0.000000000,40.000000000
1707317362.130133,2.429543495,-0.502756715,-1.466150045,0.000000000,40.000000000
1707317362.230344,2.428304195,-0.504523218,-1.466413617,0.000000000,40.000000000
1707317362.330109,2.427273035,-0.505676270,-1.466474652,0.000000000,40.000000000
1707317362.430233,2.428900957,-0.504187167,-1.466544032,0.000000000,40.000000000
1707317362.530226,2.430440426,-0.503411055,-1.466925740,0.000000000,40.000000000
1707317362.630066,2.431521893,-0.501684666,-1.466603279,0.000000000,40.000000000
1707317362.730257,2.433650970,-0.500122011,-1.466886401,0.000000000,40.000000000
1707317362.830258,2.433256388,-0.501581907,-1.467419147,0.000000000,40.000000000
1707317362.930226,2.434594154,-0.502603889,-1.468598962,0.000000000,40.000000000
1707317363.030166,2.434293509,-0.504090965,-1.469192266,0.000000000,40.000000000
1707317363.130079,2.432684183,-0.506117225,-1.469400764,0.000000000,40.000000000
1707317363.229993,2.430953741,-0.507036209,-1.468994975,0.000000000,40.000000000
1707317363.329980,2.430375814,-0.507815897,-1.469095826,0.000000000,40.000000000
1707317363.429987,2.430785656,-0.507924080,-1.469354868,0.000000000,40.000000000
1707317363.529990,2.431702852,-0.505639136,-1.468670964,0.000000000,40.000000000
1707317363.629903,2.432361841,-0.505437195,-1.468899488,0.000000000,40.000000000
1707317363.729936,2.433857203,-0.504358411,-1.469107866,0.000000000,40.000000000
1707317363.829975,2.434359074,-0.505329669,-1.469844341,0.000000000,40.000000000
1707317363.930067,2.434080124,-0.506596744,-1.470338345,0.000000000,40.000000000
1707317364.030107,2.433737278,-0.508211315,-1.470974326,0.000000000,40.000000000
1707317364.130045,2.434068918,-0.508636951,-1.471352935,0.000000000,40.000000000
1707317364.230104,2.433559418,-0.509079337,-1.471319437,0.000000000,40.000000000
1707317364.329930,2.435057163,-0.507969379,-1.471513271,0.000000000,40.000000000
1707317364.429842,2.436113358,-0.507671237,-1.471892357,0.000000000,40.000000000
1707317364.529830,2.439390898,-0.505977690,-1.472684264,0.000000000,40.000000000
1707317364.629959,2.441091299,-0.504670143,-1.472880721,0.000000000,40.000000000
1707317364.729723,2.440374613,-0.504638791,-1.472506642,0.000000000,40.000000000
1707317364.829767,2.439924717,-0.506621003,-1.473272800,0.000000000,40.000000000
1707317364.929883,2.438552380,-0.508482575,-1.473517418,0.000000000,40.000000000
1707317365.029867,2.437120914,-0.509783685,-1.473452330,0.000000000,40.000000000
1707317365.129735,2.435651541,-0.512032330,-1.473841906,0.000000000,40.000000000
1707317365.229923,2.435398817,-0.512109756,-1.473754287,0.000000000,40.000000000
1707317365.329682,2.435300589,-0.511147916,-1.473224282,0.000000000,40.000000000
1707317365.429894,2.437155724,-0.511026263,-1.474091053,0.000000000,40.000000000
1707317365.529896,2.438326836,-0.511019886,-1.474673390,0.000000000,40.000000000
1707317365.629716,2.437094450,-0.511438727,-1.474266529,0.000000000,40.000000000
1707317365.729774,2.437739611,-0.511717737,-1.474728703,0.000000000,40.000000000
1707317365.829767,2.436811209,-0.512654483,-1.474732876,0.000000000,40.000000000
1707317365.929703,2.435679436,-0.514231086,-1.474955320,0.000000000,40.000000000
1707317366.029552,2.434712648,-0.514808834,-1.474760771,0.000000000,40.000000000
1707317366.129696,2.433664560,-0.515946805,-1.474805593,0.000000000,40.000000000
1707317366.229714,2.433125973,-0.515905380,-1.474515676,0.000000000,40.000000000
1707317366.329685,2.433328867,-0.515809536,-1.474569201,0.000000000,40.000000000
1707317366.429548,2.434069872,-0.514777839,-1.474423766,0.000000000,40.000000000
1707317366.529642,2.433359623,-0.514580309,-1.473969936,0.000000000,40.000000000
1707317366.629674,2.432885408,-0.516137004,-1.474511147,0.000000000,40.000000000
1707317366.729633,2.432445526,-0.516635895,-1.474540710,0.000000000,40.000000000
1707317366.829452,2.432471037,-0.516858101,-1.474664569,0.000000000,40.000000000
1707317366.929905,2.430781364,-0.515431643,-1.473106384,0.000000000,40.000000000
1707317367.029839,2.431701422,-0.514382243,-1.473041892,0.000000000,40.000000000
1707317367.128990,2.433425665,-0.513914764,-1.473670244,0.000000000,40.000000000
1707317367.228935,2.434941053,-0.512737095,-1.473839045,0.000000000,40.000000000
1707317367.329293,2.435670614,-0.511586368,-1.473628402,0.000000000,40.000000000
1707317367.429347,2.436055899,-0.511693120,-1.473874450,0.000000000,40.000000000
1707317367.529422,2.434829712,-0.512834847,-1.473832250,0.000000000,40.000000000
1707317367.629290,2.434275150,-0.513235211,-1.473755121,0.000000000,40.000000000
1707317367.729258,2.434094191,-0.512070179,-1.473082185,0.000000000,40.000000000
1707317367.829284,2.434532642,-0.513330579,-1.473931551,0.000000000,40.000000000
1707317367.929444,2.434251547,-0.513480663,-1.473866105,0.000000000,40.000000000
1707317368.029403,2.434402704,-0.513368607,-1.473885655,0.000000000,40.000000000
1707317368.129220,2.432940245,-0.514881313,-1.473910809,0.000000000,40.000000000
1707317368.229535,2.431024551,-0.515641332,-1.473332882,0.000000000,40.000000000
1707317368.329334,2.431949377,-0.516130447,-1.474039912,0.000000000,40.000000000
1707317368.429348,2.431597471,-0.515766621,-1.473682046,0.000000000,40.000000000
1707317368.529243,2.430909634,-0.516778708,-1.473844171,0.000000000,40.000000000
1707317368.629342,2.431540012,-0.516882718,-1.474211335,0.000000000,40.000000000
1707317368.729283,2.431544781,-0.515871584,-1.473708272,0.000000000,40.000000000
1707317368.829347,2.432168484,-0.516053498,-1.474111080,0.000000000,40.000000000
1707317368.929435,2.432861805,-0.513702452,-1.473282099,0.000000000,40.000000000
1707317369.029051,2.432660341,-0.514347792,-1.473504066,0.000000000,40.000000000
1707317369.129121,2.432619333,-0.513427258,-1.473023295,0.000000000,40.000000000
1707317369.229130,2.432966232,-0.514948845,-1.473957539,0.000000000,40.000000000
1707317369.329145,2.432976961,-0.515548527,-1.474262714,0.000000000,40.000000000
1707317369.429076,2.433554173,-0.516506195,-1.475030303,0.000000000,40.000000000
1707317369.529087,2.431483269,-0.517503440,-1.474493384,0.000000000,40.000000000
1707317369.628995,2.433047533,-0.519021392,-1.476034522,0.000000000,40.000000000
1707317369.729149,2.432042599,-0.518044055,-1.475043297,0.000000000,40.000000000
1707317369.829165,2.432003021,-0.517373800,-1.474688411,0.000000000,40.000000000
1707317369.929223,2.433535576,-0.517476141,-1.475505829,0.000000000,40.000000000
1707317370.028995,2.434505224,-0.518083096,-1.476294160,0.000000000,40.000000000
1707317370.128859,2.435339451,-0.517177224,-1.476258397,0.000000000,40.000000000
1707317370.229032,2.436830282,-0.516986012,-1.476908088,0.000000000,40.000000000
1707317370.328950,2.437832355,-0.518251300,-1.478041887,0.000000000,40.000000000
1707317370.429009,2.437417030,-0.519357622,-1.478387356,0.000000000,40.000000000
1707317370.528831,2.437685013,-0.519146144,-1.478415608,0.000000000,40.000000000
1707317370.628971,2.438770056,-0.520332098,-1.479551077,0.000000000,40.000000000
1707317370.729030,2.438606024,-0.521645963,-1.480126023,0.000000000,40.000000000
1707317370.828763,2.439006805,-0.522457361,-1.480732083,0.000000000,40.000000000
1707317370.928808,2.438610792,-0.522549212,-1.480579972,0.000000000,40.000000000
1707317371.029083,2.438328266,-0.522958636,-1.480643511,0.000000000,40.000000000
1707317371.128994,2.437576771,-0.525406539,-1.481491566,0.000000000,40.000000000
1707317371.228765,2.435567141,-0.526792049,-1.481179595,0.000000000,40.000000000
1707317371.328768,2.436961651,-0.526371121,-1.481666327,0.000000000,40.000000000
1707317371.428707,2.435423851,-0.527268112,-1.481346011,0.000000000,40.000000000
1707317371.528656,2.436793804,-0.527851522,-1.482322693,0.000000000,40.000000000
1707317371.628622,2.435643911,-0.529258192,-1.482451081,0.000000000,40.000000000
1707317371.728691,2.433637619,-0.530405760,-1.482021689,0.000000000,40.000000000
1707317371.828633,2.434779882,-0.530213833,-1.482496858,0.000000000,40.000000000
1707317371.928610,2.434010267,-0.530015290,-1.482012868,0.000000000,40.000000000
1707317372.028598,2.434553146,-0.530272305,-1.482412696,0.000000000,40.000000000
1707317372.128557,2.433355331,-0.530449033,-1.481902122,0.000000000,40.000000000
1707317372.228506,2.433364630,-0.529361129,-1.481362939,0.000000000,40.000000000
1707317372.328548,2.433006048,-0.529398441,-1.481202245,0.000000000,40.000000000
1707317372.428522,2.431293011,-0.530345440,-1.480819225,0.000000000,40.000000000
1707317372.528559,2.432029247,-0.531844020,-1.481936574,0.000000000,40.000000000
1707317372.628475,2.430745602,-0.533368826,-1.482057214,0.000000000,40.000000000
1707317372.728579,2.429542303,-0.533925831,-1.481734037,0.000000000,40.000000000
1707317372.828479,2.426437140,-0.538561642,-1.482499480,0.000000000,40.000000000
1707317372.928500,2.352586031,-0.611696601,-1.482141376,0.000000000,40.000000000
1707317373.028425,2.276327133,-0.686182082,-1.481254578,0.000000000,40.000000000
1707317373.128488,2.227921724,-0.736394882,-1.482158303,0.000000000,40.000000000
1707317373.228521,2.258654833,-0.700471461,-1.479563117,0.000000000,40.000000000
1707317373.328433,2.387076139,-0.559085429,-1.473080873,0.000000000,40.000000000
1707317373.428389,2.432520151,-0.523063600,-1.477791905,0.000000000,40.000000000
1707317373.528417,2.346232891,-0.605244339,-1.475738645,0.000000000,40.000000000
1707317373.628282,2.249544144,-0.703685403,-1.476614714,0.000000000,40.000000000
1707317373.728287,2.117302418,-0.834778368,-1.476040363,0.000000000,40.000000000
1707317373.828600,2.049326897,-0.903204322,-1.476265669,0.000000000,40.000000000
1707317373.928572,1.977979183,-0.982201397,-1.480090261,0.000000000,40.000000000
1707317374.028122,1.982413888,-0.981798351,-1.482106090,0.000000000,40.000000000
1707317374.128461,2.062279224,-0.905194104,-1.483736753,0.000000000,40.000000000
1707317374.228416,2.316848040,-0.653283954,-1.485066056,0.000000000,40.000000000
1707317374.328285,2.601418018,-0.369123429,-1.485270739,0.000000000,40.000000000
1707317374.428118,2.739239216,-0.233463943,-1.486351609,0.000000000,40.000000000
1707317374.528096,2.799613476,-0.173096076,-1.486354828,0.000000000,40.000000000
1707317374.628356,2.734874487,-0.236729085,-1.485801816,0.000000000,40.000000000
1707317374.728287,2.526961803,-0.443020284,-1.484991074,0.000000000,40.000000000
1707317374.828273,2.364175558,-0.607442558,-1.485809088,0.000000000,40.000000000
1707317374.928157,2.175454140,-0.794272482,-1.484863281,0.000000000,40.000000000
1707317375.028004,2.130951166,-0.839159071,-1.485055208,0.000000000,40.000000000
1707317375.127878,2.158754110,-0.812840521,-1.485797286,0.000000000,40.000000000
1707317375.228111,2.313667297,-0.657963276,-1.485815287,0.000000000,40.000000000
1707317375.328117,2.517448902,-0.455586016,-1.486517429,0.000000000,40.000000000
1707317375.428158,2.626881599,-0.346439809,-1.486660719,0.000000000,40.000000000
1707317375.528177,2.692764997,-0.281096578,-1.486930847,0.000000000,40.000000000
1707317375.627900,2.659854412,-0.313727200,-1.486790776,0.000000000,40.000000000
1707317375.727951,2.523850203,-0.445750296,-1.484800339,0.000000000,40.000000000
1707317375.827955,2.407037735,-0.560793042,-1.483915329,0.000000000,40.000000000
1707317375.927868,2.266380787,-0.700686276,-1.483533502,0.000000000,40.000000000
1707317376.027865,2.225711584,-0.741909564,-1.483810544,0.000000000,40.000000000
1707317376.127955,2.239205360,-0.729218900,-1.484212160,0.000000000,40.000000000
1707317376.227968,2.342941999,-0.626450658,-1.484696269,0.000000000,40.000000000
1707317376.327775,2.486500025,-0.484159052,-1.485329628,0.000000000,40.000000000
1707317376.427860,2.563619137,-0.408080399,-1.485849738,0.000000000,40.000000000
1707317376.527878,2.602537870,-0.369717360,-1.486127615,0.000000000,40.000000000
1707317376.627973,2.547159195,-0.421622455,-1.484390855,0.000000000,40.000000000
1707317376.727887,2.358089209,-0.606268644,-1.482178926,0.000000000,40.000000000
1707317376.827858,2.227693558,-0.733835459,-1.480764508,0.000000000,40.000000000
1707317376.927857,2.137917995,-0.816558421,-1.477238297,0.000000000,40.000000000
1707317377.027812,2.198661566,-0.749621332,-1.474141479,0.000000000,40.000000000
1707317377.127829,2.371259451,-0.572493196,-1.471876264,0.000000000,40.000000000
1707317377.227980,2.732158422,-0.210213706,-1.471186042,0.000000000,40.000000000
1707317377.327750,3.021694183,0.084314957,-1.468689680,0.000000000,40.000000000
1707317377.427735,3.124794960,0.199145332,-1.462824821,0.000000000,40.000000000
1707317377.527623,3.164570570,0.245683983,-1.459443331,0.000000000,40.000000000
1707317377.627607,3.121121168,0.205594733,-1.457763195,0.000000000,40.000000000
1707317377.727658,2.957071543,0.038130209,-1.459470630,0.000000000,40.000000000
1707317377.827604,2.798858643,-0.124069244,-1.461463928,0.000000000,40.000000000
1707317377.927612,2.583745003,-0.342466414,-1.463105798,0.000000000,40.000000000
1707317378.027536,2.490988255,-0.436835140,-1.463911653,0.000000000,40.000000000
1707317378.127628,2.448909760,-0.481624931,-1.465267301,0.000000000,40.000000000
1707317378.227536,2.498725891,-0.431673378,-1.465199709,0.000000000,40.000000000
1707317378.327590,2.637737274,-0.295899659,-1.466818452,0.000000000,40.000000000
1707317378.427658,2.729094505,-0.204877928,-1.466986299,0.000000000,40.000000000
1707317378.527643,2.782024384,-0.148363560,-1.465193987,0.000000000,40.000000000
1707317378.627610,2.735888243,-0.195363611,-1.465625882,0.000000000,40.000000000
1707317378.727564,2.574948072,-0.354306370,-1.464627266,0.000000000,40.000000000
1707317378.827520,2.449100733,-0.479074597,-1.464087725,0.000000000,40.000000000
1707317378.927418,2.295050621,-0.632429361,-1.463739991,0.000000000,40.000000000
1707317379.027462,2.234450340,-0.693009853,-1.463730097,0.000000000,40.000000000
1707317379.127380,2.215156317,-0.712000370,-1.463578343,0.000000000,40.000000000
1707317379.227762,2.264533997,-0.661929846,-1.463231921,0.000000000,40.000000000
1707317379.327382,2.376932144,-0.548153162,-1.462542653,0.000000000,40.000000000
1707317379.427507,2.455680132,-0.469427019,-1.462553620,0.000000000,40.000000000
1707317379.527255,2.531622171,-0.395874947,-1.463748455,0.000000000,40.000000000
1707317379.627157,2.536559820,-0.391264677,-1.463912249,0.000000000,40.000000000
1707317379.727258,2.472137690,-0.454577863,-1.463357806,0.000000000,40.000000000
1707317379.827178,2.401474714,-0.524660707,-1.463067770,0.000000000,40.000000000
1707317379.927324,2.307250500,-0.618735313,-1.462992907,0.000000000,40.000000000
1707317380.027236,2.267784119,-0.660074651,-1.463929296,0.000000000,40.000000000
1707317380.127153,2.248755455,-0.679314971,-1.464035153,0.000000000,40.000000000
1707317380.227230,2.269438267,-0.658750355,-1.464094400,0.000000000,40.000000000
1707317380.327102,2.333448172,-0.594998777,-1.464223504,0.000000000,40.000000000
1707317380.427427,2.380485296,-0.548870087,-1.464677691,0.000000000,40.000000000
1707317380.527246,2.425118685,-0.505150974,-1.465134740,0.000000000,40.000000000
1707317380.627030,2.428736210,-0.502549946,-1.465643167,0.000000000,40.000000000
1707317380.727252,2.404481649,-0.526988804,-1.465735197,0.000000000,40.000000000
1707317380.827137,2.379468918,-0.551336825,-1.465402842,0.000000000,40.000000000
1707317380.927082,2.340699196,-0.587624967,-1.464161992,0.000000000,40.000000000
1707317381.027141,2.327063560,-0.601831436,-1.464447498,0.000000000,40.000000000
1707317381.127057,2.326304436,-0.603893399,-1.465098977,0.000000000,40.000000000
1707317381.227171,2.346606731,-0.583948255,-1.465277433,0.000000000,40.000000000
1707317381.327046,2.372481585,-0.556066096,-1.464273810,0.000000000,40.000000000
1707317381.426959,2.383406162,-0.543971717,-1.463688850,0.000000000,40.000000000
1707317381.526934,2.381955862,-0.545617223,-1.463786602,0.000000000,40.000000000
1707317381.627116,2.370912790,-0.555962622,-1.463437796,0.000000000,40.000000000
1707317381.726947,2.354183674,-0.571273983,-1.462728858,0.000000000,40.000000000
1707317381.826907,2.343331099,-0.579456806,-1.461393952,0.000000000,40.000000000
1707317381.927071,2.335223198,-0.588884413,-1.462053776,0.000000000,40.000000000
1707317382.027050,2.332923889,-0.592394471,-1.462659121,0.000000000,40.000000000
1707317382.126874,2.331171513,-0.593617320,-1.462394357,0.000000000,40.000000000
1707317382.226805,2.337603807,-0.587682843,-1.462643385,0.000000000,40.000000000
1707317382.326787,2.347812891,-0.580198884,-1.464005828,0.000000000,40.000000000
1707317382.426866,2.349178314,-0.578172207,-1.463675261,0.000000000,40.000000000
1707317382.526800,2.346163034,-0.582454085,-1.464308500,0.000000000,40.000000000
1707317382.626767,2.339017153,-0.588669121,-1.463843226,0.000000000,40.000000000
1707317382.726738,2.327314138,-0.599230111,-1.463272095,0.000000000,40.000000000
1707317382.826866,2.322577477,-0.602451205,-1.462514400,0.000000000,40.000000000
1707317382.926739,2.328283310,-0.596348584,-1.462316036,0.000000000,40.000000000
1707317383.026654,2.337811470,-0.587457299,-1.462634325,0.000000000,40.000000000
1707317383.126926,2.347603559,-0.579070151,-1.463336825,0.000000000,40.000000000
1707317383.226837,2.344765663,-0.584890425,-1.464828014,0.000000000,40.000000000
1707317383.326903,2.332158566,-0.600995660,-1.466577053,0.000000000,40.000000000
1707317383.426718,2.328682184,-0.605057478,-1.466869831,0.000000000,40.000000000
1707317383.526603,2.397211552,-0.538234055,-1.467722774,0.000000000,40.000000000
1707317383.626756,2.487529516,-0.453014791,-1.470272064,0.000000000,40.000000000
1707317383.726740,2.605716467,-0.337001413,-1.471359015,0.000000000,40.000000000
1707317383.826535,2.640164137,-0.301980406,-1.471072316,0.000000000,40.000000000
1707317383.926728,2.617219448,-0.326110452,-1.471664906,0.000000000,40.000000000
1707317384.026662,2.557323694,-0.383022547,-1.470173120,0.000000000,40.000000000
1707317384.126575,2.480336905,-0.459308982,-1.469822884,0.000000000,40.000000000
1707317384.226577,2.379327059,-0.559751034,-1.469539046,0.000000000,40.000000000
1707317384.326628,2.338880062,-0.601241648,-1.470060825,0.000000000,40.000000000
1707317384.426767,2.358359337,-0.583481073,-1.470920205,0.000000000,40.000000000
1707317384.526695,2.437263966,-0.505725861,-1.471494913,0.000000000,40.000000000
1707317384.626600,2.504559994,-0.441004753,-1.472782373,0.000000000,40.000000000
1707317384.726492,2.575851917,-0.366166621,-1.471009254,0.000000000,40.000000000
1707317384.826478,2.575935841,-0.364540458,-1.470238090,0.000000000,40.000000000
1707317384.926282,2.529203415,-0.411592513,-1.470397949,0.000000000,40.000000000
1707317385.026492,2.498186588,-0.444270909,-1.471228719,0.000000000,40.000000000
1707317385.126614,2.469172716,-0.475430936,-1.472301722,0.000000000,40.000000000
1707317385.226486,2.428248405,-0.516025722,-1.472137094,0.000000000,40.000000000
1707317385.326252,2.408399343,-0.538261831,-1.473330617,0.000000000,40.000000000
1707317385.426460,2.414494038,-0.530857980,-1.472676039,0.000000000,40.000000000
1707317385.526591,2.458093166,-0.489496231,-1.473794699,0.000000000,40.000000000
1707317385.626194,2.495887280,-0.450834334,-1.473360896,0.000000000,40.000000000
1707317385.726206,2.542702675,-0.402070820,-1.472386718,0.000000000,40.000000000
1707317385.826244,2.556388140,-0.387694210,-1.472041130,0.000000000,40.000000000
1707317385.926149,2.544630289,-0.398067981,-1.471349239,0.000000000,40.000000000
1707317386.026420,2.522836685,-0.419558108,-1.471197367,0.000000000,40.000000000
1707317386.126328,2.498139858,-0.443751693,-1.470945835,0.000000000,40.000000000
1707317386.226242,2.485654116,-0.455961168,-1.470807672,0.000000000,40.000000000
1707317386.326236,2.500528574,-0.441662282,-1.471095443,0.000000000,40.000000000
1707317386.426098,2.512332916,-0.430919617,-1.471626282,0.000000000,40.000000000
1707317386.526127,2.519296885,-0.423469573,-1.471383214,0.000000000,40.000000000
1707317386.626236,2.516969442,-0.424694270,-1.470831871,0.000000000,40.000000000
1707317386.726336,2.509514332,-0.430081576,-1.469797969,0.000000000,40.000000000
1707317386.826152,2.514238834,-0.424876511,-1.469557643,0.000000000,40.000000000
1707317386.926191,2.550923824,-0.390169919,-1.470546842,0.000000000,40.000000000
1707317387.026167,2.578307867,-0.364260346,-1.471284151,0.000000000,40.000000000
1707317387.126125,2.605644464,-0.336889029,-1.471266747,0.000000000,40.000000000
1707317387.226163,2.657590151,-0.286183387,-1.471886754,0.000000000,40.000000000
1707317387.326202,2.727240801,-0.217354700,-1.472297788,0.000000000,40.000000000
1707317387.426131,2.756256819,-0.186997622,-1.471627235,0.000000000,40.000000000
1707317387.525929,2.727353573,-0.217449307,-1.472401381,0.000000000,40.000000000
1707317387.626071,2.664463282,-0.279972553,-1.472217917,0.000000000,40.000000000
1707317387.725915,2.536789894,-0.408594728,-1.472692370,0.000000000,40.000000000
1707317387.825878,2.456273794,-0.489820868,-1.473047256,0.000000000,40.000000000
1707317387.925856,2.393765211,-0.550609767,-1.472187519,0.000000000,40.000000000
1707317388.025842,2.413631916,-0.530708194,-1.472169995,0.000000000,40.000000000
1707317388.126043,2.481424809,-0.463226974,-1.472325802,0.000000000,40.000000000
1707317388.226087,2.623606920,-0.320403367,-1.472005129,0.000000000,40.000000000
1707317388.325767,2.732182503,-0.211603940,-1.471893191,0.000000000,40.000000000
1707317388.426021,2.755240679,-0.187997237,-1.471619010,0.000000000,40.000000000
1707317388.525776,2.712810040,-0.229273915,-1.471042037,0.000000000,40.000000000
1707317388.625892,2.652603388,-0.291266948,-1.471935153,0.000000000,40.000000000
1707317388.725978,2.535346746,-0.406001836,-1.470674276,0.000000000,40.000000000
1707317388.825673,2.458057165,-0.485775381,-1.471916199,0.000000000,40.000000000
1707317388.925651,2.386374474,-0.556601703,-1.471488118,0.000000000,40.000000000
1707317389.025723,2.376413584,-0.565954745,-1.471184254,0.000000000,40.000000000
1707317389.125592,2.402533293,-0.538250506,-1.470391989,0.000000000,40.000000000
1707317389.225842,2.500563145,-0.441762149,-1.471162677,0.000000000,40.000000000
1707317389.325605,2.603134632,-0.338680655,-1.470907569,0.000000000,40.000000000
1707317389.425694,2.637416601,-0.306772232,-1.472094417,0.000000000,40.000000000
1707317389.525574,2.635235310,-0.306406379,-1.470820785,0.000000000,40.000000000
1707317389.625686,2.590973616,-0.352221996,-1.471597910,0.000000000,40.000000000
1707317389.725908,2.502144814,-0.440290987,-1.471217871,0.000000000,40.000000000
1707317389.825682,2.444485664,-0.500316799,-1.472401261,0.000000000,40.000000000
1707317389.925552,2.401394606,-0.542448759,-1.471921682,0.000000000,40.000000000
1707317390.025776,2.408112764,-0.533493519,-1.470803142,0.000000000,40.000000000
1707317390.125614,2.444700956,-0.496754974,-1.470728040,0.000000000,40.000000000
1707317390.225554,2.523724318,-0.417508274,-1.470616221,0.000000000,40.000000000
1707317390.325801,2.591366529,-0.351637840,-1.471502185,0.000000000,40.000000000
1707317390.425557,2.609107733,-0.333915710,-1.471511722,0.000000000,40.000000000
1707317390.525468,2.589489460,-0.352645695,-1.471067667,0.000000000,40.000000000
1707317390.625291,2.553420305,-0.389576495,-1.471498370,0.000000000,40.000000000
1707317390.725577,2.482673168,-0.461525917,-1.472099543,0.000000000,40.000000000
1707317390.825723,2.445703983,-0.496045917,-1.470875025,0.000000000,40.000000000
1707317390.925426,2.426556349,-0.516948283,-1.471752286,0.000000000,40.000000000
1707317391.025539,2.441788673,-0.500772119,-1.471280456,0.000000000,40.000000000
1707317391.125314,2.475869179,-0.467238784,-1.471553922,0.000000000,40.000000000
1707317391.225257,2.534610987,-0.408710688,-1.471660852,0.000000000,40.000000000
1707317391.325309,2.576741695,-0.365903676,-1.471322656,0.000000000,40.000000000
1707317391.425443,2.582349062,-0.358432382,-1.470390677,0.000000000,40.000000000
1707317391.525198,2.557878971,-0.384653836,-1.471266508,0.000000000,40.000000000
1707317391.625328,2.525515556,-0.417674512,-1.471595049,0.000000000,40.000000000
1707317391.725151,2.476764441,-0.468535125,-1.472649813,0.000000000,40.000000000
1707317391.825229,2.453747988,-0.491292924,-1.472520471,0.000000000,40.000000000
1707317391.925056,2.452742100,-0.493886739,-1.473314404,0.000000000,40.000000000
1707317392.025208,2.468510628,-0.478536755,-1.473523617,0.000000000,40.000000000
1707317392.125071,2.496070385,-0.449764788,-1.472917557,0.000000000,40.000000000
1707317392.225613,2.539367437,-0.408088386,-1.473727942,0.000000000,40.000000000
1707317392.325088,2.561569691,-0.385256648,-1.473413110,0.000000000,40.000000000
1707317392.425233,2.558768749,-0.388571143,-1.473669887,0.000000000,40.000000000
1707317392.525246,2.531497240,-0.415491730,-1.473494530,0.000000000,40.000000000
1707317392.625212,2.503397703,-0.443192124,-1.473294854,0.000000000,40.000000000
1707317392.725222,2.469108582,-0.475572884,-1.472340703,0.000000000,40.000000000
1707317392.824954,2.457627773,-0.487948388,-1.472788095,0.000000000,40.000000000
1707317392.925350,2.465622425,-0.477038175,-1.471330285,0.000000000,40.000000000
1707317393.024927,2.482362986,-0.458017617,-1.470190287,0.000000000,40.000000000
1707317393.125160,2.505833149,-0.433177918,-1.469505429,0.000000000,40.000000000
1707317393.225127,2.534628630,-0.404711962,-1.469670296,0.000000000,40.000000000
1707317393.324862,2.546831608,-0.395026743,-1.470929146,0.000000000,40.000000000
1707317393.425131,2.537373781,-0.404444754,-1.470909357,0.000000000,40.000000000
1707317393.525101,2.509916067,-0.431587845,-1.470751882,0.000000000,40.000000000
1707317393.624894,2.475840092,-0.466531605,-1.471185923,0.000000000,40.000000000
1707317393.724950,2.443841934,-0.497650743,-1.470746279,0.000000000,40.000000000
1707317393.825031,2.442437887,-0.499071151,-1.470754504,0.000000000,40.000000000
1707317393.924743,2.472345114,-0.468194187,-1.470269680,0.000000000,40.000000000
1707317394.024705,2.501151562,-0.440795660,-1.470973611,0.000000000,40.000000000
1707317394.124908,2.532582760,-0.409151107,-1.470866919,0.000000000,40.000000000
1707317394.224833,2.557826757,-0.381370783,-1.469598770,0.000000000,40.000000000
1707317394.324859,2.550626040,-0.387331307,-1.468978643,0.000000000,40.000000000
1707317394.425292,2.528398752,-0.410520077,-1.469459414,0.000000000,40.000000000
1707317394.524705,2.496231556,-0.441344440,-1.468788028,0.000000000,40.000000000
1707317394.624763,2.486533165,-0.451242328,-1.468887687,0.000000000,40.000000000
1707317394.724806,2.484713316,-0.454262674,-1.469487906,0.000000000,40.000000000
1707317394.824901,2.498584747,-0.440429419,-1.469506979,0.000000000,40.000000000
1707317394.924795,2.518715620,-0.421532422,-1.470124006,0.000000000,40.000000000
1707317395.024851,2.533035278,-0.406644315,-1.469839811,0.000000000,40.000000000
1707317395.124750,2.538374662,-0.402817905,-1.470596194,0.000000000,40.000000000
1707317395.224615,2.529423237,-0.411134988,-1.470279098,0.000000000,40.000000000
1707317395.324594,2.508378506,-0.433540285,-1.470959425,0.000000000,40.000000000
1707317395.424704,2.495895147,-0.444604695,-1.470249891,0.000000000,40.000000000
1707317395.524615,2.481163740,-0.459444076,-1.470303893,0.000000000,40.000000000
1707317395.624570,2.481233835,-0.458378822,-1.469806314,0.000000000,40.000000000
1707317395.724513,2.490766764,-0.448841840,-1.469804287,0.000000000,40.000000000
1707317395.824701,2.503889561,-0.436626375,-1.470257998,0.000000000,40.000000000
1707317395.924847,2.519158125,-0.422064215,-1.470611095,0.000000000,40.000000000
1707317396.024497,2.526774645,-0.416155368,-1.471464992,0.000000000,40.000000000
1707317396.124655,2.526513338,-0.414697051,-1.470605254,0.000000000,40.000000000
1707317396.224887,2.517936945,-0.425256401,-1.471596599,0.000000000,40.000000000
1707317396.324521,2.503493786,-0.440666676,-1.472080231,0.000000000,40.000000000
1707317396.424672,2.495406151,-0.449626178,-1.472516179,0.000000000,40.000000000
1707317396.524578,2.490784883,-0.454546720,-1.472665787,0.000000000,40.000000000
1707317396.624561,2.494346142,-0.451104403,-1.472725272,0.000000000,40.000000000
1707317396.724370,2.502259016,-0.443406790,-1.472832918,0.000000000,40.000000000
1707317396.824797,2.515896082,-0.428831130,-1.472363591,0.000000000,40.000000000
1707317396.924469,2.527328491,-0.419638515,-1.473483443,0.000000000,40.000000000
1707317397.024527,2.530712605,-0.416698873,-1.473705769,0.000000000,40.000000000
1707317397.124236,2.528134823,-0.419829518,-1.473982215,0.000000000,40.000000000
1707317397.224316,2.518294573,-0.431003660,-1.474649191,0.000000000,40.000000000
1707317397.324203,2.530258179,-0.419723809,-1.474990964,0.000000000,40.000000000
1707317397.424222,2.555980444,-0.397813112,-1.476896763,0.000000000,40.000000000
1707317397.524204,2.569024801,-0.382588625,-1.475806713,0.000000000,40.000000000
1707317397.624134,2.564945936,-0.392653197,-1.478799582,0.000000000,40.000000000
1707317397.724134,2.545549870,-0.413127333,-1.479338527,0.000000000,40.000000000
1707317397.824182,2.526552677,-0.430652082,-1.478602290,0.000000000,40.000000000
1707317397.924100,2.496511936,-0.464472771,-1.480492353,0.000000000,40.000000000
1707317398.024068,2.487839937,-0.475005478,-1.481422663,0.000000000,40.000000000
1707317398.123796,2.480230808,-0.480325431,-1.480278134,0.000000000,40.000000000
1707317398.223945,2.490088701,-0.472731590,-1.481410146,0.000000000,40.000000000
1707317398.324056,2.520144463,-0.439758331,-1.479951382,0.000000000,40.000000000
1707317398.424312,2.539080620,-0.421531022,-1.480305910,0.000000000,40.000000000
1707317398.523896,2.565047026,-0.396304220,-1.480675578,0.000000000,40.000000000
1707317398.624107,2.565966129,-0.398556232,-1.482261181,0.000000000,40.000000000
1707317398.724148,2.550755978,-0.415231884,-1.482993960,0.000000000,40.000000000
1707317398.824194,2.526790857,-0.441497803,-1.484144330,0.000000000,40.000000000
1707317398.924141,2.497385502,-0.466598809,-1.481992245,0.000000000,40.000000000
1707317399.023851,2.487234592,-0.481109291,-1.484171987,0.000000000,40.000000000
